FID_,HarbName,HarbourCod,HarbourTyp,Harbour_Co,TotalRepla,HarbLat,HarbLong
,ABRAHAMS COVE,1,Core,2.5,15052.510000000000000,48.519599999999997,-58.915100000000002
,ADMIRALS BEACH,3,Core,3.146346362,1614883.310000000100000,47.006100000000004,-53.643799999999999
,ANCHOR POINT,6,Core,3.557743518,3099009.529999999800000,51.233300000000000,-56.799999999999997
,AQUAFORTE,9,Core,2.827742635,920898.859999999990000,47.006700000000002,-52.956899999999997
,ARNOLD'S COVE,11,Core,3.642637865,7822288.809999999600000,47.758400000000002,-53.990200000000002
,ASPEN COVE,12,Core,2,506597.780000000030000,49.462499999999999,-54.107300000000002
,BAINE HARBOUR,14,Core,3.381945158,1537192.300000000000000,47.360480000000003,-54.896200000000000
,BAKERS BROOK,15,Non-Core,3.5,20000.000000000000000,49.651649999999997,-57.960599999999999
,BANK HEAD COVE,16,Non-Core,3,5209.890000000000300,48.370899999999999,-58.678600000000003
,BARR'D HARBOUR,19,Core,4.144872739,674657.500000000000000,50.816800000000001,-57.063600000000001
,BARR'D ISLANDS,20,Non-Core,0.418089141,297088.510000000010000,49.724649999999997,-54.187300000000000
,BARTLETTS HARBOUR,21,Core,1.228253749,1288476.800000000000000,50.942210000000003,-56.991489999999999
,BAULINE,24,Core,4.135671458,4985325.990000000200000,47.723170000000003,-52.834099999999999
,BAULINE EAST,25,Core,2.813508163,369910.690000000000000,47.180100000000003,-52.843899999999998
,BAY BULLS,26,Core,4.757332289,4475309.870000000100000,47.315199999999997,-52.812199999999997
,BAY DE VERDE,28,Core,2.873707106,18238258.770000000000000,48.084200000000003,-52.897900000000000
,BAY L'ARGENT,30,Non-Core,3.19215379,378233.039999999980000,47.548299999999998,-54.879199999999997
,BAY ROBERTS,31,Core,3.295458425,1115738.399999999900000,47.589900000000000,-53.266700000000000
,BEAUMONT,34,Core,3.55802352,1580863.330000000100000,49.614620000000002,-55.678800000000003
,BIG BROOK,40,Core,2.636234937,762931.760000000010000,51.521500000000003,-56.147500000000001
,BIRCHY BAY,41,#N/A,#N/A,0.000000000000000,49.363199999999999,-54.728800000000000
,BIRD COVE,43,Core,4.544310026,1137340.260000000000000,51.052599999999998,-56.934600000000003
,BLACK DUCK BROOK,45,Core,2.10913207,318579.909999999970000,48.701509999999999,-58.903300000000002
,BLACK DUCK COVE,46,Core,4.148070854,3877724.100000000100000,51.197299999999998,-56.799100000000003
,BLUE BEACH,51,Core,2.159415389,2815194.049999999800000,48.766500000000001,-58.786999999999999
,BLUE COVE,52,Core,4.850846329,838849.969999999970000,51.096100000000000,-56.872399999999999
,BONAVISTA,54,Core,2.410757449,11547583.570000000000000,48.649999999999999,-53.116700000000002
,BOXEY,55,Core,3.383470813,1584184.000000000000000,47.451400000000000,-55.558000000000000
,BRAGG'S ISLAND,57,Non-Core,0,129723.740000000010000,48.933199999999999,-53.671900000000001
,BRANCH,58,Core,3.458189209,4575778.290000000000000,46.882309999999997,-53.951300000000003
,BRIDGEPORT,59,Core,3.835458925,1962761.399999999900000,49.550300000000000,-54.873199999999997
,BRIG BAY,60,Core,1.636518822,474778.299999999990000,51.064200000000000,-56.909500000000001
,BRIGHTON,61,Non-Core,2.340913613,141876.910000000000000,49.547840000000001,-55.643099999999997
,BRIGUS,62,Core,3.369770826,945001.079999999960000,47.538690000000003,-53.206800000000001
,BRIGUS SOUTH,63,Core,3.320271825,2096193.810000000100000,47.113100000000003,-52.883499999999998
,BROWN'S COVE (HEATHERTON),69,Core,3,17511.889999999999000,48.277189999999997,-58.772700000000000
,BURGEO,73,Core,2.70533435,2741600.879999999900000,47.613100000000003,-57.607700000000001
,BURIN,75,Core,4.015837736,3472540.370000000100000,47.040590000000002,-55.163300000000000
,BURNT COVE,78,#N/A,#N/A,0.000000000000000,47.196570000000001,-52.848700000000001
,BURNT ISLANDS,80,Core,2.524109224,2324666.740000000200000,47.596209999999999,-58.887999999999998
,CALVERT,85,Core,3.224196116,2193210.680000000200000,47.057600000000001,-52.910299999999999
,CAMPBELLS CREEK,86,Core,4.158290071,34608.930000000000000,48.521200000000000,-58.873600000000003
,CANNINGS COVE,88,Core,4.4004547,466386.789999999980000,48.444839999999999,-53.844999999999999
,CAPE BROYLE,89,Core,4.164885392,2662562.049999999800000,47.095100000000002,-52.945599999999999
,CAPE FREELS NORTH,90,Core,3.604227261,3588052.939999999900000,49.259399999999999,-53.494999999999997
,CAPE ST. GEORGE (ROUZES BROOK),95,Core,4.150183576,5110258.480000000400000,48.476799999999997,-59.200899999999997
,CAPSTAN ISLAND,97,Core,2.817983434,527862.969999999970000,51.568600000000004,-56.730699999999999
,CARBONEAR,98,Core,2.938339319,2540116.460000000000000,47.737900000000003,-53.223799999999997
,CATALINA,101,Core,3.899894528,4063238.529999999800000,48.515999999999998,-53.074900000000000
,CENTREVILLE,103,Core,3.64831474,1203089.980000000000000,49.018300000000004,-53.878300000000003
,CHAMPNEY'S WEST,106,Core,4,250256.899999999990000,48.383299999999998,-53.299999999999997
,CHANCE COVE,107,Core,3.098250978,2196018.250000000000000,47.680999999999997,-53.826999999999998
,CHANGE ISLANDS,108,Core,1.609873427,1012093.170000000000000,49.674880000000002,-54.400700000000001
,CHANNEL (PORT AUX BASQUES),109,Core,2.202318459,6453936.980000000400000,47.574584999999999,-59.139448999999999
,COACHMAN'S COVE,117,Core,3.641399615,1971149.110000000100000,50.049999999999997,-56.110100000000003
,CODROY,118,Core,3.448741873,6973734.839999999900000,47.880400000000002,-59.397199999999998
,COMFORT COVE,122,Core,3.225194346,1395344.750000000000000,49.405099999999997,-54.855400000000003
,CONCEPTION HARBOUR,123,Core,2.3,162068.720000000000000,47.440610000000000,-53.209000000000003
,CONCHE,124,Core,3.513567762,2916618.810000000100000,50.886200000000002,-55.895099999999999
,CONNE RIVER,125,Core,3.893646806,2944756.980000000000000,47.861899999999999,-55.771999999999998
,COOK'S HARBOUR,126,Core,3.9373337,3632537.140000000100000,51.606800000000000,-55.862200000000001
,COOMB'S COVE,127,Non-Core,1.109853229,313594.150000000020000,47.457520000000002,-55.624000000000002
,COTTLESVILLE,129,Core,2,362382.520000000020000,49.512079999999997,-54.867609999999999
,COW HEAD,131,Core,2.891410027,14643304.510000000000000,49.922600000000003,-57.805000000000000
,COX'S COVE,133,Core,4.776967483,2486395.160000000100000,49.125900000000001,-58.077599999999997
,CROW HEAD,135,Non-Core,2.251323818,988508.339999999970000,49.674300000000002,-54.807000000000002
,CUPIDS,136,Core,3.087734836,1139798.110000000100000,47.546700000000001,-53.233699999999999
,DANIEL'S HARBOUR,139,Core,3.265740767,1558529.260000000000000,50.240949999999998,-57.589900000000000
,DAVIS COVE,143,Core,3.979302249,1207860.679999999900000,47.635890000000003,-54.340400000000002
,DEADMAN'S BAY,144,Non-Core,3,171255.060000000000000,49.347700000000003,-53.693199999999997
,DEEP BAY,145,Core,3.60661692,631627.979999999980000,49.669800000000002,-54.280900000000003
,DILDO,149,Core,3.358334913,2473551.359999999900000,47.569000000000003,-53.561599999999999
,DILDO SOUTH,150,Core,1.7,777093.120000000000000,47.532600000000002,-53.550899999999999
,DOVER,152,Core,1.973771558,158893.519999999990000,48.863570000000003,-53.971499999999999
,DUNTARA,155,Core,3,442941.380000000000000,48.599299999999999,-53.371299999999998
,EDDIES COVE EAST,157,Core,4.040735835,1726046.370000000100000,51.416300000000000,-56.457000000000001
,EDDIES COVE WEST,158,Core,3.874790477,692065.729999999980000,50.751500000000000,-57.173200000000001
,ELLISTON,161,#N/A,#N/A,0.000000000000000,48.633409999999998,-53.035299999999999
,ENGLISH HARBOUR WEST,164,Non-Core,1,147213.149999999990000,47.460540000000002,-55.492800000000003
,FAIR HAVEN,168,Core,3.430377988,2437666.540000000000000,47.532449999999997,-53.898829999999997
,FERMEUSE,169,Core,3.228821753,3505631.790000000000000,46.975600000000000,-52.953400000000002
,FERRYLAND,170,Core,2.193567356,551720.390000000010000,47.023899999999998,-52.883000000000003
,FISCHELLS,171,Core,5,715693.930000000050000,48.319800000000001,-58.707999999999998
,FLAT ISLANDS (PORT ELIZABETH),173,Non-Core,0,211237.220000000000000,47.272100000000002,-54.920600000000000
,FLATROCK,175,Core,3.752005201,1651147.649999999900000,47.701549999999997,-52.707960000000000
,FLEUR DE LYS,176,Core,3.962656028,2731035.250000000000000,50.120159999999998,-56.131700000000002
,FLOWER'S COVE,177,Core,2.681448386,1337785.939999999900000,51.299700000000001,-56.735799999999998
,FOGO,178,Core,3.467032449,4003114.100000000100000,49.715899999999998,-54.275300000000001
,FORRESTERS POINT,180,Core,3.651356093,1208445.700000000000000,51.181319999999999,-56.811799999999998
,FORTEAU,181,Core,3.544065659,1458067.179999999900000,51.469700000000003,-56.953600000000002
,FORTUNE,182,Core,3.036990033,20039175.030000001000000,47.072299999999998,-55.830900000000000
,FOX HARBOUR,186,Core,3.996268213,1351137.520000000000000,47.318519999999999,-53.911200000000001
,FOX ISLAND RIVER,187,Core,3.075547831,3494384.620000000100000,48.694800000000001,-58.677000000000000
,FOX ROOST,188,Core,3.282363097,244962.570000000010000,47.573000000000000,-59.042800000000000
,FOXTRAP,189,Core,2.840449543,4581342.910000000100000,47.513800000000003,-52.996400000000001
,FRANCOIS,190,Core,4.611718176,3331209.270000000000000,47.580800000000004,-56.743600000000001
,FRENCHMAN'S COVE (BAY OF ISLANDS),193,Core,4.106969197,3073761.399999999900000,49.058500000000002,-58.180199999999999
,GARDEN COVE,197,Core,3.007524163,361781.909999999970000,47.850900000000003,-54.158600000000000
,GARNISH,198,Core,3.371399099,5113593.370000000100000,47.234499999999997,-55.358499999999999
,GASKIERS,199,Non-Core,2,370040.010000000010000,46.879860000000001,-53.612099999999998
,GAULTOIS,201,Core,4.960694913,383448.080000000020000,47.606400000000001,-55.902999999999999
,GILLARD'S COVE,205,Non-Core,1,11595.610000000001000,49.617500000000000,-54.758099999999999
,GLOVERS HARBOUR,206,#N/A,#N/A,0.000000000000000,49.455010000000001,-55.490200000000002
,GLOVERTOWN,207,Core,4.222182521,1072480.740000000000000,48.674100000000003,-54.026499999999999
,GOOSE COVE,208,Core,3.955652084,2694319.169999999900000,51.308199999999999,-55.628700000000002
,GOOSEBERRY COVE,209,Core,3.84312043,4026147.270000000000000,48.031050000000000,-53.639200000000002
,GRAND BANK,210,Core,3.188928865,10235946.890000001000000,47.102499999999999,-55.748600000000003
,GRAND BRUIT,213,Non-Core,2.858516608,535148.810000000060000,47.672420000000002,-58.225099999999998
,GRAND LE PIERRE,214,Core,3.947293267,1150200.020000000000000,47.673980000000000,-54.787300000000002
,GRATES COVE,215,Core,3.302215274,3065760.470000000200000,48.164980000000000,-52.938000000000002
,GRAVELS (PORT AU PORT),216,#N/A,#N/A,0.000000000000000,48.554099999999998,-58.711700000000000
,GREEN ISLAND BROOK,220,Core,2.381154382,1326857.659999999900000,51.400399999999998,-56.526000000000003
,GREEN ISLAND COVE,221,Core,3.10359965,1401047.020000000000000,51.384099999999997,-56.579700000000003
,GREEN'S HARBOUR,223,Core,3.929289757,654846.140000000010000,47.643500000000003,-53.505699999999997
,GREENSPOND,225,Core,3.120591307,1662662.629999999900000,49.067830000000001,-53.576300000000003
,GRIQUET,226,Core,2.914944484,2108004.330000000100000,51.512400000000000,-55.465100000000000
,HAMPDEN,228,Non-Core,3.7,452201.270000000020000,49.544800000000002,-56.855800000000002
,HANT'S HARBOUR,229,Core,3.688477047,2963624.060000000100000,48.019900000000000,-53.261000000000003
,HAPPY ADVENTURE,230,Core,3.588591909,3469538.890000000100000,48.634709999999998,-53.755369999999999
,HARBOUR BRETON,231,Core,3.520249741,6248140.980000000400000,47.478400000000001,-55.811799999999998
,HARBOUR GRACE,232,Core,3.475950983,9234394.720000000700000,47.690629999999999,-53.218100000000000
,HARBOUR LE COU,233,Core,1.414546617,775143.479999999980000,47.624499999999998,-58.682099999999998
,HARBOUR MAIN,234,Core,2.795362344,415592.940000000000000,47.435490000000001,-53.158999999999999
,HARBOUR MILLE,235,Core,2.132310021,921697.989999999990000,47.581539999999997,-54.884799999999998
,HARBOUR ROUND,236,Core,3.482986612,1665100.149999999900000,49.921300000000002,-55.733400000000003
,HEART'S CONTENT,240,Core,3.488212975,5070790.019999999600000,47.879280000000001,-53.370899999999999
,HEART'S DELIGHT,241,Core,2.755474828,1251530.620000000100000,47.771500000000003,-53.467300000000002
,HEART'S DESIRE,242,Core,2.213253668,1092673.700000000000000,47.811729999999997,-53.443800000000003
,HERMITAGE,243,Core,2.62268327,4192122.040000000000000,47.556500000000000,-55.925199999999997
,HERRING NECK,244,Core,3.82810677,1767585.490000000000000,49.639690000000002,-54.615800000000000
,HIBBS COVE,245,Core,1.076851,1557700.169999999900000,47.601779999999998,-53.183799999999998
,HICKMAN'S HARBOUR,246,Core,3.09296226,617729.709999999960000,48.103679999999997,-53.734510000000000
,HIGHLANDS (EEL HOLE),247,Core,2.04233579,269699.820000000010000,48.177700000000002,-58.929900000000004
,HILLGRADE,248,Non-Core,3.133189856,462195.400000000020000,49.573560000000001,-54.704099999999997
,HOLYROOD,250,Core,5,957094.689999999940000,47.388399999999997,-53.126199999999997
,HOPEALL,251,Core,4.114578749,227217.090000000000000,47.616750000000003,-53.511499999999998
,ISLE VALEN,259,Core,3,159138.350000000010000,47.476880000000001,-54.393900000000002
,ISLE AUX MORTS,260,Core,0.945944355,4222100.929999999700000,47.588700000000003,-58.979799999999997
,ISLINGTON,261,Core,2.659173299,82609.539999999994000,47.762520000000002,-53.479999999999997
,JACKSON'S ARM,263,Core,2.894455609,850574.620000000000000,49.866500000000002,-56.781500000000001
,JACKSON'S COVE,264,Core,4.542841103,414348.810000000000000,49.688299999999998,-56.004199999999997
,JERSEYSIDE,266,Core,4.217198443,6642257.320000000300000,47.253300000000003,-53.961300000000001
,JOB'S COVE,267,Core,2.986390748,734794.219999999970000,47.969999999999999,-53.015999999999998
,JOE BATT'S ARM,268,Core,3.621430678,4092010.009999999800000,49.725800000000000,-54.168999999999997
,KEELS,269,Core,2.344491454,956935.939999999940000,48.607889999999998,-53.407299999999999
,KING'S COVE,271,Core,3.200575747,736130.250000000000000,48.567999999999998,-53.332900000000002
,L'ANSE-AU-CLAIR,275,Core,2.836152358,4067482.490000000200000,51.423499999999997,-57.066499999999998
,L'ANSE-AU-LOUP,276,Core,3.181188373,9236824.859999999400000,51.517600000000002,-56.830100000000002
,LA SCIE,277,Core,3.762366637,15374244.730000000000000,49.961100000000002,-55.600250000000003
,LADLE COVE,278,Core,3.658341948,2214305.379999999900000,49.473999999999997,-54.058399999999999
,LAMALINE,281,Core,3.572394346,2968779.210000000000000,46.866500000000002,-55.796100000000003
,LARK HARBOUR,283,Core,2.690961901,949827.120000000000000,49.101399999999998,-58.363799999999998
,LAWN,284,Core,4.048247765,3603553.040000000000000,46.943899999999999,-55.541400000000003
,LEADING TICKLES WEST,287,Core,4.251131439,2570070.470000000200000,49.503799999999998,-55.455199999999998
,LITTLE BAY (LA POILE),289,Core,3.494826016,993711.780000000030000,47.682200000000002,-58.396000000000001
,MARYSTOWN (LITTLE BAY),290,Non-Core,3.557858572,407572.849999999980000,47.165500000000002,-55.148000000000003
,LITTLE BURNT BAY,291,Core,3.999771803,1278051.720000000000000,49.356600000000000,-55.079400000000000
,LITTLE HARBOUR EAST,294,Core,3.315167422,1696471.220000000000000,47.592370000000003,-54.858600000000003
,LITTLE HEART'S EASE,296,Core,4.060361837,694264.160000000030000,48.014899999999997,-53.689500000000002
,LITTLE PARADISE,298,Non-Core,0,662031.239999999990000,47.360759999999999,-54.580700000000000
,LITTLE PORT,299,Core,3.119010651,1117867.730000000000000,49.106900000000003,-58.422199999999997
,LITTLE ST. LAWRENCE,300,Non-Core,2.636428781,213149.709999999990000,46.927750000000003,-55.362900000000003
,LONG COVE,303,Core,4.176844142,3976478.549999999800000,47.566699999999997,-53.666699999999999
,LONG POND MANUELS,305,#N/A,#N/A,0.000000000000000,47.518599999999999,-52.974899999999998
,LORD'S COVE,306,Core,3.085548783,1456399.050000000000000,46.878500000000003,-55.668999999999997
,LOWER ISLAND COVE,310,Core,2.365804853,2215190.350000000100000,47.999429999999997,-52.977800000000002
,LOWER LANCE COVE,311,Core,4,974534.120000000000000,48.146900000000002,-53.696800000000003
,LUMSDEN,312,Core,4.27287343,8928843.640000000600000,49.300600000000003,-53.589500000000001
,LUSHES BIGHT,314,Core,5,627127.209999999960000,49.593100000000000,-55.716500000000003
,MAINLAND,315,Core,2.94142684,115962.380000000000000,48.624099999999999,-59.101100000000002
,MALL BAY,317,Non-Core,2.889147668,698425.550000000050000,46.978900000000003,-53.585400000000000
,MARCHES COVE (LOURDES),318,#N/A,#N/A,0.000000000000000,48.651299999999999,-59.008499999999998
,MARGAREE,319,Core,2.694583187,2036393.590000000100000,47.572899999999997,-59.058399999999999
,MARY'S HARBOUR,321,#N/A,#N/A,0.000000000000000,52.309600000000003,-55.836300000000001
,MCCALLUM,323,Core,3.066666661,665530.109999999990000,47.630929999999999,-56.226999999999997
,MIDDLE ARM,326,Core,3.727082467,1019834.040000000000000,49.703600000000002,-56.093600000000002
,MILES COVE,328,Core,4.147277815,1103815.570000000100000,49.540500000000002,-55.779899999999998
,MING'S BIGHT,331,Core,3.721044434,936695.290000000040000,49.976700000000001,-56.041699999999999
,MORETON'S HARBOUR,333,Core,3.006578019,1110674.820000000100000,49.570680000000003,-54.863599999999998
,MORTIER,334,Non-Core,2,158373.179999999990000,47.087100000000000,-55.117600000000003
,LONG HARBOUR (MOUNT ARLINGTON HEIGHTS),337,Core,2.366592484,2364084.419999999900000,47.427579999999999,-53.862299999999998
,MUSGRAVE HARBOUR,339,Core,4.070312544,9422519.800000000700000,49.459600000000002,-53.960500000000003
,NEW BONAVENTURE,343,Core,2.7,669111.699999999950000,48.285100000000000,-53.445799999999998
,NEW CHELSEA,344,Non-Core,1.20934238,335072.429999999990000,48.030270000000002,-53.217320000000001
,NEW HARBOUR,345,Core,3.22831519,725819.280000000030000,47.588400000000000,-53.542999999999999
,NEWMANS COVE,348,Core,2.105134463,337034.109999999990000,48.586100000000002,-53.193700000000000
,NEWSTEAD,349,Non-Core,2,264417.010000000010000,49.396999999999998,-54.858199999999997
,NEWTOWN,350,Core,3.527428347,1087493.909999999900000,49.202550000000002,-53.514699999999998
,NIPPERS HARBOUR,351,Core,4.077623078,4629151.460000000000000,49.793590000000002,-55.859800000000000
,NORRIS POINT,355,Core,2.047033009,5947100.139999999700000,49.525869999999998,-57.879800000000003
,NORTH HARBOUR (PLACENTIA BAY),356,Core,3.128924395,670456.400000000020000,47.845730000000003,-54.096400000000003
,NORTH HARBOUR (ST.MARY'S BAY),357,Core,2.836015945,457361.539999999980000,47.155799999999999,-53.660699999999999
,O'DONNELLS,359,Core,3.694788069,2629546.750000000000000,47.067799999999998,-53.571500000000000
,OCHRE PIT COVE,360,Core,3.699934248,4714190.040000000000000,47.911949999999997,-53.060000000000002
,ODERIN,361,#N/A,#N/A,0.000000000000000,47.293219999999998,-54.802300000000002
,OLD BONAVENTURE,363,Core,3.340172103,781024.079999999960000,48.285330000000002,-53.428199999999997
,OLD PERLICAN,364,Core,3.579303337,10617443.359999999000000,48.088700000000003,-53.008299999999998
,OLD SHOP,365,#N/A,#N/A,0.000000000000000,47.530929999999998,-53.574500000000000
,OPEN HALL,366,Core,3,539857.780000000030000,48.546799999999998,-53.485999999999997
,PACQUET,369,Core,3.196898273,2162975.750000000000000,49.990600000000001,-55.874600000000001
,PARKERS COVE,370,Non-Core,3.77673084,503562.450000000010000,47.394599999999997,-54.853400000000001
,PARSON'S POND,372,#N/A,#N/A,0.000000000000000,50.030360000000002,-57.712100000000000
,PETER'S RIVER,374,Non-Core,1,2543581.419999999900000,46.755560000000003,-53.611699999999999
,PETITES,375,Non-Core,1.298270064,245499.840000000000000,47.617040000000003,-58.634799999999998
,PETTY HARBOUR,377,Core,4.012613151,6853577.070000000300000,47.463509999999999,-52.706000000000003
,PICCADILLY,379,Core,2.615987974,1632934.550000000000000,48.576500000000003,-58.902500000000003
,PINWARE,382,Core,1.450997592,888716.939999999940000,51.621800000000000,-56.704099999999997
,PLACENTIA,383,Core,3.924530322,1308277.870000000100000,47.249049999999997,-53.960900000000002
,PLATE COVE WEST,385,Core,3.910978889,3453485.490000000200000,48.499899999999997,-53.505499999999998
,PLEASANTVIEW (PARADISE),386,#N/A,#N/A,0.000000000000000,49.360900000000001,-55.321100000000001
,POINT AU GAUL,387,Core,2.323135296,446485.270000000020000,46.859000000000002,-55.748600000000003
,POINT CREWE,389,#N/A,#N/A,0.000000000000000,46.930900000000001,-55.976300000000002
,POND COVE,395,Non-Core,3.789252155,47450.070000000000000,51.130099999999999,-56.857399999999998
,POOL'S COVE,396,Core,3.868728847,1583010.110000000100000,47.680300000000003,-55.429800000000000
,PORT AU BRAS,400,#N/A,#N/A,0.000000000000000,47.058990000000001,-55.139400000000002
,PORT AU CHOIX,401,Core,2.44993991,12852807.760000000000000,50.707500000000003,-57.356999999999999
,PORT BLANDFORD,402,Non-Core,2,333657.250000000000000,48.362560000000002,-54.161400000000000
,PORT DE GRAVE,403,Core,2.644285838,14856538.689999999000000,47.586390999999999,-53.210303000000003
,PORT HARMON,404,Core,4.096517238,2203949.270000000000000,48.514499999999998,-58.537999999999997
,PORT KIRWAN,405,Core,2.883648433,848198.050000000050000,46.969600000000000,-52.912199999999999
,PORT SAUNDERS,406,Core,3.838493011,6664905.990000000200000,50.646999999999998,-57.274400000000000
,PORTUGAL COVE,409,Core,4.09644622,3473299.210000000000000,47.625889999999998,-52.856800000000000
,PORTUGAL COVE SOUTH,410,Core,3.031755403,4453124.099999999600000,46.704700000000003,-53.260599999999997
,POUCH COVE,411,Core,4.429919609,951893.270000000020000,47.764890000000001,-52.764899999999997
,PRINCETON,414,Core,3.943996512,669096.609999999990000,48.419400000000003,-53.593400000000003
,QUIDI VIDI,416,Non-Core,4,263873.440000000000000,47.580500000000001,-52.674300000000002
,QUIRPON,417,Core,2.740102958,1418949.399999999900000,51.582120000000003,-55.443800000000003
,RALEIGH,419,Core,2.744364556,3261372.879999999900000,51.563800000000001,-55.730800000000002
,RAMEA,421,Core,2.546621064,1423893.960000000000000,47.521799999999999,-57.387599999999999
,RED BAY,423,Core,2,358683.010000000010000,51.730200000000004,-56.425500000000000
,RED CLIFF,424,#N/A,#N/A,0.000000000000000,48.559600000000003,-53.491799999999998
,RED HARBOUR,426,Core,4.3242524,2722021.100000000100000,47.291800000000002,-54.994300000000003
,RED HEAD COVE,427,#N/A,#N/A,0.000000000000000,48.130400000000002,-52.893599999999999
,REEF'S HARBOUR,430,Core,3.854557189,793905.790000000040000,51.011600000000001,-57.009099999999997
,RENCONTRE EAST,432,Core,4.126416046,1159252.840000000100000,47.636429999999997,-55.211399999999998
,RENEWS,433,Core,3.825974872,1813699.970000000000000,46.922800000000002,-52.933500000000002
,RIVER OF PONDS,434,Core,3.559146292,2635481.529999999800000,50.528500000000001,-57.396599999999999
,RIVERHEAD,435,Core,3.054441455,956692.280000000030000,46.962870000000002,-53.522799999999997
,ROBERT'S ARM,436,Core,4.840440776,715157.400000000020000,49.488560000000000,-55.807400000000001
,ROCKY HARBOUR,438,Core,2.928400099,2006332.889999999900000,49.589300000000001,-57.937899999999999
,ROSE BLANCHE,439,Core,1.928043365,4177032.669999999900000,47.609200000000001,-58.690100000000001
,ROUND HARBOUR,441,Non-Core,2.695844945,698633.989999999990000,49.853119999999997,-55.656799999999997
,RUSHOON,442,Core,1.785665981,1214046.950000000000000,47.348720000000000,-54.916600000000003
,SALLY'S COVE,444,Core,2.837232622,47191.089999999997000,49.731540000000003,-57.935380000000002
,SALVAGE,446,Core,3.220061395,2023177.510000000000000,48.688400000000001,-53.643200000000000
,SANDY COVE (STRAIT OF BELLE ISLE),449,Core,2.805617738,1236023.020000000000000,51.343200000000003,-56.677500000000002
,SANDYVILLE (DAWSON'S COVE),451,Core,2.504145253,312003.890000000010000,47.530500000000004,-55.937100000000001
,SAVAGE COVE,452,Core,3.571845025,809781.150000000020000,51.333300000000001,-56.700000000000003
,SEAL COVE (CONNAIGRE BAY),453,Core,3.526670709,3304513.629999999900000,47.487800000000000,-56.048699999999997
,SEAL COVE (WHITE BAY),454,Core,2.102804659,842570.569999999950000,49.935800000000000,-56.393799999999999
,SEAL COVE (HEATHERTON),456,Core,3,14441.770000000000000,48.277220000000000,-58.772709999999996
,SELDOM COME BY,457,Core,4.321371268,4327854.219999999700000,49.610300000000002,-54.186999999999998
,SHEAVES COVE,458,Core,4,19341.500000000000000,48.517910000000001,-59.052900000000001
,SHIP COVE (CONCEPTION BAY),459,Core,3.129433782,1551836.340000000100000,47.590699999999998,-53.200800000000001
,SHIP COVE (ST.GEORGE'S BAY),460,Core,3,39472.180000000000000,48.514400000000002,-58.955240000000003
,SHIP COVE (CAPE ONION),461,Core,2.51244389,1389007.270000000000000,51.597200000000001,-55.642400000000002
,SHIP HARBOUR,462,Core,3.445899364,296304.280000000030000,47.359800000000000,-53.900100000000002
,SHOAL COVE WEST,464,Core,1.3,366205.710000000020000,51.011699999999998,-57.009099999999997
,SHOE COVE,467,Core,2.951040968,938168.680000000050000,49.914200000000001,-55.559199999999997
,SIBLEYS COVE,468,Core,3.787405515,3210925.480000000000000,48.043289999999999,-53.104500000000002
,SMITH'S HARBOUR,469,Core,2.835714772,456523.090000000030000,49.740000000000002,-55.969200000000001
,SNOOKS ARM,470,Non-Core,3.898610079,833621.520000000020000,49.854930000000003,-55.711399999999998
,SOP'S ARM,471,Core,2,750000.000000000000000,49.772500000000001,-56.873899999999999
,SOUTH EAST BIGHT,473,Core,0,381171.510000000010000,47.394770000000001,-54.576599999999999
,SOUTHERN HARBOUR,475,Core,2.627984059,4468826.129999999900000,47.715220000000002,-53.966299999999997
,SOUTHPORT,476,Core,4.121231645,2010680.350000000100000,48.044499999999999,-53.643599999999999
,SPANIARD'S BAY,477,Non-Core,3,185621.010000000010000,47.622655000000002,-53.271197000000001
,SPIRITY COVE,480,Core,2.5,49007.169999999998000,50.603409999999997,-57.367500000000000
,SPOON COVE,481,#N/A,#N/A,0.000000000000000,47.643909999999998,-53.207400000000000
,ST. ANTHONY,482,Core,2.649042349,481249.789999999980000,51.360669999999999,-55.569400000000002
,ST. ANTHONY BIGHT,483,Non-Core,3.186487385,649513.370000000000000,51.379660000000001,-55.545200000000001
,ST. BERNARD'S,484,Core,4.12203705,3643703.080000000100000,47.527799999999999,-54.950400000000002
,ST. BRENDAN'S (SHOAL COVE AND DOCK COVE),486,Core,0,1740541.310000000100000,48.874000000000002,-53.667499999999997
,ST. BRIDE'S,487,Core,3.764390293,9606877.890000000600000,46.917864000000002,-54.176321000000002
,ST. CAROLS,488,Non-Core,4.897994718,482302.669999999980000,51.376100000000001,-55.502899999999997
,ST. DAVID'S (CRABBE'S RIVER),490,Core,3.458209945,1279556.790000000000000,48.218299999999999,-58.863000000000000
,ST. GEORGE'S,491,Non-Core,1.276098028,713323.959999999960000,48.431300000000000,-58.485999999999997
,ST. JACQUES,492,Core,2.9,100805.340000000000000,47.491300000000003,-55.420900000000003
,ST. JOHN'S (PROSSER ROCK),494,Core,3.804001773,10027126.810000001000000,47.565800000000003,-52.690100000000001
,ST. JONES WITHIN,495,#N/A,#N/A,0.000000000000000,48.029000000000003,-53.801000000000002
,ST. LAWRENCE,499,Core,3.882375813,3112965.970000000200000,46.917099999999998,-55.390500000000003
,ST. LUNAIRE,500,Core,3.445177379,2868871.799999999800000,51.500200000000000,-55.474499999999999
,ST. MARY'S,501,Core,3.088812392,1160348.120000000100000,46.916300000000000,-53.573799999999999
,ST. PHILLIP'S,503,Core,3.628403544,1983919.020000000000000,47.592399999999998,-52.885500000000000
,ST. SHOTTS,504,Core,2.461383929,4490300.879999999900000,46.627699999999997,-53.592399999999998
,STAG HARBOUR,507,Non-Core,3,64719.370000000003000,49.575490000000002,-54.272599999999997
,SUMMERFORD,510,Core,2.809226872,530017.729999999980000,49.489199999999997,-54.796900000000001
,SUMMERVILLE,512,Core,3.662339789,2253478.549999999800000,48.439999999999998,-53.551600000000001
,SUNNYSIDE,513,Core,3.282249799,763357.910000000030000,47.857920000000000,-53.928590000000000
,SWEET BAY,514,Core,4.129898042,597500.199999999950000,48.446060000000003,-53.651200000000003
,TACKS BEACH,516,#N/A,#N/A,0.000000000000000,47.580199999999998,-54.214500000000001
,THORNLEA,517,Non-Core,2.667430196,415226.820000000010000,47.606450000000002,-53.719400000000000
,THREE ROCK COVE,518,Core,2.64043209,80277.770000000004000,48.624099999999999,-59.100999999999999
,TILTING,519,Core,2.77843872,1275151.080000000100000,49.705889999999997,-54.061900000000001
,TIZZARD'S HARBOUR,520,Non-Core,3,323921.859999999990000,49.594560000000001,-54.802500000000002
,TORBAY,521,Core,2.646148987,1572697.919999999900000,47.665390000000002,-52.726399999999998
,TREPASSEY,523,Core,3.631255083,1488781.990000000000000,46.735500000000002,-53.371499999999997
,TRINITY EAST,526,Core,3.191295541,684356.800000000050000,48.378399999999999,-53.345100000000002
,TRITON WEST,527,Core,4.889967263,2337412.279999999800000,49.526380000000003,-55.618299999999998
,TROUT RIVER,528,Core,3.059835495,1703318.659999999900000,49.480400000000003,-58.132599999999996
,TROUTY,530,Non-Core,2.682285468,343241.020000000020000,48.331200000000003,-53.406199999999998
,TWILLINGATE (SHOAL TICKLE),531,Core,4.733640526,7235210.040000000000000,49.646540000000002,-54.770099999999999
,UPPER ISLAND COVE,536,Core,3.11192937,893420.560000000060000,47.649540000000002,-53.202900000000000
,JENKINS COVE,537,Core,2.761127469,1006375.950000000000000,49.663539999999998,-54.736400000000003
,VALLEYFIELD,538,Core,3.255172543,7237703.740000000200000,49.121899999999997,-53.608699999999999
,VIRGIN ARM,539,Non-Core,2,139951.030000000000000,49.527200000000001,-54.771999999999998
,WESTPORT,544,Core,2.859150048,603285.579999999960000,49.785559999999997,-56.643799999999999
,VALLEY POND,545,Core,4.11929789,84230.660000000003000,49.568489999999997,-54.899299999999997
,WHITEWAY,546,Core,3.743699153,1387225.840000000100000,47.697000000000003,-53.481900000000003
,BEACHSIDE,547,Non-Core,2.949471576,963905.260000000010000,49.643099999999997,-55.895899999999997
,WILD COVE,548,Core,3.60630791,1987173.820000000100000,49.993350000000000,-56.342100000000002
,WINTERTON,552,Core,2.665162858,1700858.790000000000000,47.955199999999998,-53.334299999999999
,WITLESS BAY,553,Core,3.560736995,1925464.700000000000000,47.278599999999997,-52.823900000000002
,WOODY POINT,558,Core,3.856379776,783570.910000000030000,49.502400000000002,-57.913100000000000
,WRECK COVE,559,Core,3.843762476,1500497.460000000000000,47.497599999999998,-55.607900000000001
,MAKKOVIK,564,Core,3.262119194,2384023.350000000100000,55.084000000000003,-59.170999999999999
,SMOKEY,566,Non-Core,3,2575055.399999999900000,54.466799999999999,-57.246099999999998
,MERASHEEN,570,Non-Core,0,1190024.570000000100000,47.416699999999999,-54.350000000000001
,BRENT'S COVE,572,Core,2.273476367,960592.290000000040000,49.938740000000003,-55.711199999999998
,WESLEYVILLE,573,Core,3.367264876,2050224.179999999900000,49.144460000000002,-53.560499999999998
,BELLEORAM,574,Core,3.798876592,3167970.100000000100000,47.526600000000002,-55.408499999999997
,GREY RIVER,578,#N/A,#N/A,0.000000000000000,47.589039999999997,-57.101500000000001
,ENGLEE,579,Core,1.29540928,234598.690000000000000,50.732460000000003,-56.106999999999999
,NAIN,585,Core,2.74552861,2854103.950000000200000,56.543199999999999,-61.686799999999998
,PLUM POINT,592,Non-Core,5,31566.529999999999000,51.078899999999997,-56.890300000000003
,THREE MILE ROCK,594,Non-Core,3,32671.450000000001000,50.006599999999999,-57.738900000000001
,STRAITSVIEW (SPILLARS COVE),600,Core,4.723825793,1271978.560000000100000,51.588600000000000,-55.493000000000002
,BISCAYAN COVE,607,Non-Core,1.3,190526.170000000010000,47.804000000000002,-52.787399999999998
,BLACK TICKLE,609,Core,3.861684021,2504606.430000000200000,53.456099999999999,-55.764600000000002
,CAPE CHARLES (LODGE BAY),619,Non-Core,0,101770.670000000000000,52.231430000000003,-55.847000000000001
,CARMANVILLE,621,Core,3.039007427,7420616.169999999900000,49.403900000000000,-54.282600000000002
,FLAT BAY,637,#N/A,#N/A,0.000000000000000,48.402099999999997,-58.582200000000000
,ST. LEWIS,639,Core,0,1555011.480000000000000,52.368110000000001,-55.679200000000002
,HEATHERTON,648,#N/A,#N/A,0.000000000000000,48.277030000000003,-58.772300000000001
,PETIT FORTE,677,Core,0.152841617,624424.170000000040000,47.396239999999999,-54.668100000000003
,PINSENT'S ARM,678,Core,5,1493597.669999999900000,52.688450000000003,-55.888500000000001
,TICKLE COVE,691,Core,3.698641517,1781213.820000000100000,48.583300000000001,-53.483300000000000
,WEST BAY CENTRE,701,Non-Core,2.5,18975.270000000000000,48.599780000000003,-58.940800000000003
,JOSEPHINE'S COVE (BARR'D HARBOUR),719,Core,0,500000.000000000000000,50.816800000000001,-57.063699999999997
,OLD HOUSE ROCK (ST. PAULS),725,#N/A,#N/A,0.000000000000000,49.856699999999996,-57.797199999999997
,PORTLAND CREEK,727,#N/A,#N/A,0.000000000000000,50.168500000000002,-57.611899999999999
,MONKSTOWN,737,Core,3.424576137,335845.989999999990000,47.579000000000001,-54.429299999999998
,GEORGES COVE,738,#N/A,#N/A,0.000000000000000,52.582099999999997,-55.755400000000002
,CARTWRIGHT,739,Non-Core,2.626668844,473433.940000000000000,53.703260000000000,-57.026299999999999
,SQUARE ISLANDS,740,Non-Core,0,249081.370000000000000,52.732930000000003,-55.831299999999999
,LOURDES,744,Core,3.26478838,568786.219999999970000,48.652419999999999,-59.004700000000000
,CASTORS RIVER NORTH,751,Core,5,1486407.020000000000000,50.931980000000003,-56.960099999999997
,ENGLISH HARBOUR EAST,757,Core,3.902626275,1026971.090000000000000,47.632300000000001,-54.885500000000000
,CHARLOTTETOWN,800,Core,4.704010886,1200490.570000000100000,52.773820000000001,-56.121299999999998
,ABBOTTS HARBOUR,1001,Core,2.936170213,2350000.000000000000000,43.663899999999998,-65.823700000000002
,ADVOCATE,1002,Core,3.327118644,1475000.000000000000000,45.332400000000000,-64.775700000000001
,ALDER POINT,1003,Core,2.987401575,3175000.000000000000000,46.308700000000002,-60.283499999999997
,AULDS COVE,1010,Core,3.093247588,1555000.000000000000000,45.761000000000003,-62.171999999999997
,BAILEYS BROOK (LISMORE),1012,Core,3.152014652,8190000.000000000000000,45.648200000000003,-61.435200000000002
,BALLANTYNES COVE (MCNAIR'S COVE),1014,Core,2.026829268,10250000.000000000000000,45.706000000000003,-62.270299999999999
,BARRIOS BEACH (TRACADIE),1018,Core,2.54589372,2070000.000000000000000,45.858699999999999,-61.918599999999998
,BATTERY POINT (VICTORIA BEACH),1019,Core,3.027901786,5600000.000000000000000,45.641100000000002,-61.627499999999998
,BAY ST. LAWRENCE,1020,Core,2.684719536,12925000.000000000000000,44.674999999999997,-65.752600000000001
,BAYFIELD (POMQUET POINT),1021,Core,3.183333333,4500000.000000000000000,47.000599999999999,-60.465600000000002
,BAYPORT,1022,Core,2.960869565,1150000.000000000000000,45.645299999999999,-61.753700000000002
,BEAR POINT,1025,Core,3.07642998,2535000.000000000000000,44.329300000000003,-64.316000000000003
,BIG BRAS D'OR,1027,Core,2.485191083,3140000.000000000000000,43.486699999999999,-65.655199999999994
,BIG TANCOOK ISLAND,1029,Core,3.124,1250000.000000000000000,46.281500000000001,-60.424700000000001
,INGOMAR (BLACK POINT),1030,Core,3.641852771,6045000.000000000000000,44.464799999999997,-64.171000000000006
,BLANDFORD (SHOAL COVE),1031,Core,3.34057971,1380000.000000000000000,43.563229999999997,-65.362200000000001
,BROAD COVE,1036,Non-Core,0,0.000000000000000,44.494799999999998,-64.112300000000005
,BROOKLYN-FISHERMEN'S WHARF / SKIDWAY,1038,Core,3.75,800000.000000000000000,44.179400000000001,-64.478200000000001
,BUSH ISLAND,1039,Core,3.422794118,1700000.000000000000000,44.048499999999997,-64.689899999999994
,CAMP COVE (LOWER ARGYLE),1040,Core,3.248305085,7375000.000000000000000,44.233499999999999,-64.372900000000001
,CANADA CREEK,1041,Non-Core,0,0.000000000000000,43.724200000000003,-65.840400000000002
,CANSO,1042,Core,3.53953321,9726000.000000000000000,45.171100000000003,-64.743600000000001
,CAPE JOHN,1044,Core,3.748460591,3248000.000000000000000,45.338999999999999,-60.997799999999998
,CAPE ST.MARYS,1046,Core,3.266786034,5585000.000000000000000,45.798000000000002,-63.123899999999999
,CARTERS POINT (MURPHY COVE),1049,Core,3.451508621,1160000.000000000000000,44.085000000000001,-66.206699999999998
,CENTREVILLE (TROUT COVE),1051,Core,2.295751634,7650000.000000000000000,44.785299999999999,-62.762400000000000
,CHEBOGUE (TOWN POINT HILL),1054,Core,3.222307692,1625000.000000000000000,44.551099999999998,-66.033199999999994
,CHEGOGGIN (PEMBROKE DYKE CHANNEL),1055,Non-Core,1.484848485,4125000.000000000000000,43.775900000000000,-66.094399999999993
,CHEGOGGIN POINT,1056,Core,2.969075145,4325000.000000000000000,43.859900000000003,-66.150800000000004
,CHETICAMP - TOWN WHARF,1061,Core,2.791955617,2163000.000000000000000,43.853000000000002,-66.162000000000006
,CHETICAMP POINT,1063,Non-Core,1.056748466,3260000.000000000000000,46.627000000000002,-61.016599999999997
,EAST CHEZZETCOOK,1064,Core,2.8,750000.000000000000000,46.603099999999998,-61.053800000000003
,CLARK'S HARBOUR,1068,Core,3.057027391,11135000.000000000000000,44.711100000000002,-63.236600000000003
,COOPERS POINT,1074,Core,3.868804665,1715000.000000000000000,43.444000000000003,-65.635099999999994
,CRIBBONS POINT,1078,Core,3.29038599,6995000.000000000000000,44.794300000000000,-62.675400000000003
,CRIPPLE CREEK,1079,Core,3.471335857,9245000.000000000000000,45.755899999999997,-61.896599999999999
,DELAPS COVE,1084,Core,3.426214197,4015000.000000000000000,43.488999999999997,-65.559799999999996
,DENNIS POINT (LOWER WEST PUBNICO),1085,Core,3.66252073,15075000.000000000000000,44.769399999999997,-65.635499999999993
,DINGWALL,1088,Core,3.660706638,4670000.000000000000000,43.618099999999998,-65.787300000000002
,DRUM HEAD,1089,Non-Core,2.312785649,4376000.000000000000000,46.903260000000003,-60.460400000000000
,DUBLIN SHORE,1090,Core,2.918032787,3050000.000000000000000,45.146599999999999,-61.603299999999997
,EAST DOVER,1092,Core,2.2,750000.000000000000000,44.267400000000002,-64.363699999999994
,EAST FERRY,1093,Non-Core,3.023188406,1725000.000000000000000,44.495500000000000,-63.844499999999996
,EAST SIDE PORT L'HEBERT,1095,Core,3.553380783,2810000.000000000000000,44.393300000000004,-66.203400000000002
,EASTERN PASSAGE,1098,Core,3.388489209,2502000.000000000000000,43.827900000000000,-64.933400000000006
,FALLS POINT,1103,Core,3.043086172,12475000.000000000000000,44.610999999999997,-63.496899999999997
,FELTZEN SOUTH,1104,Core,2.352586207,2320000.000000000000000,43.530099999999997,-65.741200000000006
,FINLAY POINT,1105,Core,3.284246575,3285000.000000000000000,44.329200000000000,-64.279799999999994
,FIVE ISLANDS,1107,Non-Core,0,0.000000000000000,46.134099999999997,-61.462299999999999
,FORBES POINT,1109,Core,2.549528302,1590000.000000000000000,43.537799999999997,-65.745500000000007
,FOX POINT,1111,Core,2.4360587,2385000.000000000000000,44.613999999999997,-64.057699999999997
,FREEPORT-FISH POINT WHARF,1112,Core,3.226415094,2650000.000000000000000,44.274200000000000,-66.334999999999994
,GABARUS,1113,Non-Core,0,0.000000000000000,45.843000000000004,-60.149500000000003
,GLACE BAY,1114,Core,2.95545642,11152000.000000000000000,46.195599999999999,-59.950699999999998
,GRAND ETANG,1117,Core,3.419627383,5770000.000000000000000,46.549500000000002,-61.044800000000002
,GUNNING COVE,1119,Core,3.964588145,6495000.000000000000000,43.680650000000000,-65.340599999999995
,HALF ISLAND COVE,1120,Non-Core,0,0.000000000000000,45.353800000000000,-61.195000000000000
,HALLS HARBOUR,1121,Core,3.424351585,8675000.000000000000000,45.200800000000001,-64.619799999999998
,HAMPTON,1122,Core,3.4,7375000.000000000000000,44.906799999999997,-65.350800000000007
,HAVRE BOUCHER,1124,Core,2.169014085,1775000.000000000000000,45.688800000000001,-61.527700000000003
,HUNTS POINT,1127,Core,3.494949495,2475000.000000000000000,43.951500000000003,-64.768199999999993
,INDIAN POINT,1129,Core,3.934108527,1290000.000000000000000,44.459299999999999,-64.313400000000001
,INGONISH FERRY (SOUTH INGONISH),1130,Core,3.968773514,1329000.000000000000000,46.629800000000003,-60.389299999999999
,INVERNESS (MCISAAC POND),1131,Core,3.705472637,5025000.000000000000000,46.230200000000004,-61.317399999999999
,GAMMONS CREEK (JOHN VOGLERS SHORE),1136,Core,3.233009709,1030000.000000000000000,44.903799999999997,-62.349800000000002
,JONES HARBOUR,1138,Core,1.623955432,1795000.000000000000000,43.750100000000003,-64.974699999999999
,JUDIQUE (BAXTERS COVE),1139,Core,2.132063882,4070000.000000000000000,45.857999999999997,-61.503500000000003
,KELLEYS COVE,1140,Non-Core,0,0.000000000000000,43.783900000000003,-66.128699999999995
,KRAUT POINT (RIVERPORT),1145,Core,3.404761905,3150000.000000000000000,44.289800000000000,-64.345200000000006
,LARRYS RIVER,1147,Core,2.266411871,5560000.000000000000000,45.217900000000000,-61.373699999999999
,LEDGE HARBOUR,1148,Core,3.034172662,3475000.000000000000000,43.652000000000001,-65.819000000000003
,LITTLE ANSE,1151,Non-Core,0,0.000000000000000,45.496800000000000,-60.929200000000002
,SCOTS BAY (LITTLE COVE),1153,Core,1.655963303,2725000.000000000000000,45.314200000000000,-64.424700000000001
,DOVER (LITTLE DOVER),1154,Core,2.85741688,3910000.000000000000000,45.290100000000002,-61.048699999999997
,LITTLE HARBOUR (HALIFAX COUNTY),1155,Core,3.052,1125000.000000000000000,44.709299999999999,-62.841799999999999
,LITTLE HARBOUR (CHERRY HILL),1156,Core,2.5,650000.000000000000000,44.157400000000003,-64.482399999999998
,LITTLE HARBOUR (L'ARDOISE),1158,Core,3.215799388,4247000.000000000000000,45.582700000000003,-60.740299999999998
,LITTLE HARBOUR (SHELBURNE COUNTY),1160,Core,2.945539419,2410000.000000000000000,43.716700000000003,-65.030000000000001
,LITTLE JUDIQUE PONDS,1162,Core,3.898879402,4685000.000000000000000,45.939700000000002,-61.527500000000003
,LITTLE LISCOMB,1163,Core,3.561046512,1720000.000000000000000,45.025799999999997,-61.971800000000002
,LITTLE RIVER (VICTORIA COUNTY),1165,Core,3.304388863,6357000.000000000000000,46.445399999999999,-60.459099999999999
,LITTLE RIVER (DIGBY COUNTY),1166,Core,3.246409336,2785000.000000000000000,44.444200000000002,-66.129800000000003
,LITTLE RIVER HARBOUR,1167,Core,4.05632716,3240000.000000000000000,43.711700000000000,-66.030799999999999
,LITTLE TANCOOK,1168,Non-Core,0,0.000000000000000,44.471899999999998,-64.140600000000006
,LIVINGSTONE COVE,1170,Core,2.523076923,1625000.000000000000000,45.868200000000002,-61.981699999999996
,LOCKEPORT,1171,Core,3.615692223,9065000.000000000000000,43.701300000000003,-65.109399999999994
,LONG COVE (MEDWAY),1173,Non-Core,0,0.000000000000000,44.097700000000003,-64.545699999999997
,LOUISBOURG,1175,Core,2.962727535,6922000.000000000000000,45.917800000000000,-59.970599999999997
,LOWER EAST PUBNICO,1177,Core,3.119446047,8665000.000000000000000,43.605600000000003,-65.777000000000001
,LOWER JORDAN BAY,1179,Core,3.291666667,1200000.000000000000000,43.681600000000003,-65.240300000000005
,LOWER PROSPECT,1182,Core,2.563694268,785000.000000000000000,44.451000000000001,-63.725900000000003
,LOWER SANDY POINT,1183,Core,3.720877458,6610000.000000000000000,43.680000000000000,-65.302199999999999
,LOWER WEDGEPORT -TUNA WHARF,1185,Core,2.160575049,5130000.000000000000000,43.712299999999999,-65.984399999999994
,LOWER WOODS HARBOUR,1186,Core,3.320197044,5075000.000000000000000,43.521900000000002,-65.737399999999994
,LUNENBURG - RAILWAY WHARF,1187,Core,2.777777778,1350000.000000000000000,44.375000000000000,-64.307000000000002
,MABOU HARBOUR,1189,Core,3.970091027,3845000.000000000000000,46.085999999999999,-61.464900000000000
,MAIN-?-DIEU,1192,Core,3.315914489,6315000.000000000000000,46.006599999999999,-59.841200000000001
,MALAGASH,1193,Core,2.846292417,2387000.000000000000000,45.774799999999999,-63.296199999999999
,MARGAREE HARBOUR (BELLE C?TE),1195,Core,3.600492914,8115000.000000000000000,46.443600000000004,-61.108600000000003
,MARIE JOSEPH,1197,Core,3.348484848,1320000.000000000000000,44.965699999999998,-62.079000000000001
,METEGHAN,1205,Core,3.593939394,16500000.000000000000000,44.194099999999999,-66.166600000000003
,MIDDLE POINT COVE,1208,Non-Core,0,0.000000000000000,44.508899999999997,-63.939000000000000
,MILL COVE,1209,Core,2.490942029,2760000.000000000000000,44.580900000000000,-64.054100000000005
,MOOSE HARBOUR,1211,Core,3.057575758,4125000.000000000000000,44.018700000000003,-64.664500000000004
,MORRIS ISLAND,1212,Core,3.350649351,2310000.000000000000000,43.734699999999997,-65.887299999999996
,MURPHYS POND,1215,Core,3.1003961,4923000.000000000000000,46.027400000000000,-61.544600000000003
,NEILS HARBOUR,1216,Core,3.767253604,4231000.000000000000000,46.807000000000002,-60.320599999999999
,NEW HARBOUR (GUYSBOROUGH COUNTY),1219,Core,3.59562212,3255000.000000000000000,44.473599999999998,-64.091200000000001
,NEW HARBOUR (LUNENBURG COUNTY),1220,Non-Core,0,0.000000000000000,44.473599999999998,-64.091300000000004
,NEW HAVEN,1221,Core,2.630940834,4124000.000000000000000,46.820599999999999,-60.319800000000001
,NEW WATERFORD,1222,Core,2.789621016,2322000.000000000000000,46.256399999999999,-60.083700000000000
,NEWELLTON,1223,Core,3.198275862,8700000.000000000000000,43.472099999999998,-65.633300000000006
,INGONISH (MACLEODS POINT),1224,Core,3.381355023,5594000.000000000000000,46.688400000000001,-60.359099999999998
,NORTH SYDNEY-BALLAST GROUNDS,1226,Core,2.962440545,6097000.000000000000000,46.206400000000002,-60.248899999999999
,NORTHPORT,1227,Non-Core,1.909574468,1466400.000000000000000,45.934199999999997,-63.868499999999997
,NORTHWEST COVE,1228,Core,3.355263158,1330000.000000000000000,44.533900000000003,-64.023600000000002
,OWLS HEAD,1232,Core,4.284591195,1590000.000000000000000,44.736400000000003,-62.831299999999999
,PARKERS COVE,1234,Core,3.21,10000000.000000000000000,44.813000000000002,-65.537800000000004
,PEGGYS COVE,1235,Core,3.944134078,895000.000000000000000,44.493400000000001,-63.916499999999999
,PEREAUX (DELHAVEN),1236,Core,2.876126126,2775000.000000000000000,45.202399999999997,-64.380399999999995
,PICTOU ISLAND,1239,Core,3.403571429,7000000.000000000000000,45.803100000000001,-62.585700000000003
,PICTOU LANDING,1240,Core,4.1875,5700000.000000000000000,45.675899999999999,-62.683999999999997
,PINKNEYS POINT,1241,Core,3.076622361,6395000.000000000000000,43.704000000000001,-66.054199999999994
,PLEASANT BAY,1243,Core,3.127611421,7180000.000000000000000,46.830399999999997,-60.797800000000002
,POINT ACONI (MCCREADYVILLE),1244,Core,3.553648069,1165000.000000000000000,46.307099999999998,-60.287500000000001
,PORT BICKERTON EAST,1248,Core,2.809815951,2445000.000000000000000,45.105800000000002,-61.722700000000003
,PORT BICKERTON WEST,1249,Core,2.044776119,2345000.000000000000000,45.094700000000003,-61.726999999999997
,PORT LA TOUR,1256,Core,3.41555903,6395000.000000000000000,43.498800000000003,-65.470900000000000
,PORT MAITLAND,1258,Core,2.641996558,14525000.000000000000000,43.985300000000002,-66.158000000000001
,PORT MEDWAY,1260,Core,3.560131796,3035000.000000000000000,44.132199999999997,-64.576200000000000
,PORT MORIEN,1261,Core,3.08683033,8269000.000000000000000,46.131599999999999,-59.871899999999997
,PORT MOUTON,1262,Core,2.005,1750000.000000000000000,43.926900000000003,-64.847099999999998
,PORTUGUESE COVE,1267,Non-Core,0,0.000000000000000,44.520400000000002,-63.531399999999998
,PUGWASH,1270,Core,3.359086492,2058000.000000000000000,45.847700000000003,-63.666899999999998
,QUEENSPORT,1272,Core,3.320158103,1265000.000000000000000,45.344799999999999,-61.256000000000000
,ROSE BAY,1278,Non-Core,0,0.000000000000000,44.286099999999998,-64.284800000000004
,SAMBRO,1280,Core,3.789371981,5175000.000000000000000,44.477899999999998,-63.599400000000003
,SANDFORD,1282,Core,2.641210614,15075000.000000000000000,43.919400000000003,-66.155100000000004
,SANDY COVE EAST,1283,Core,3.306122449,3675000.000000000000000,44.487699999999997,-66.085300000000004
,SANDY COVE WEST,1284,Non-Core,0,0.000000000000000,44.498699999999999,-66.098600000000005
,SAULNIERVILLE,1286,Core,4.705570292,18850000.000000000000000,44.263100000000001,-66.136899999999997
,SEAL HARBOUR,1289,#N/A,#N/A,0.000000000000000,45.150500000000001,-61.580700000000000
,SHAD BAY,1291,Core,4,355000.000000000000000,44.529000000000003,-63.787799999999997
,SHAG HARBOUR,1292,Core,3.30794702,5285000.000000000000000,43.492880000000000,-65.706559999999996
,SHAG HARBOUR (PROSPECT POINT),1293,Core,2.582236842,1900000.000000000000000,43.490400000000001,-65.718699999999998
,SKINNERS COVE,1295,Core,3.791074056,4078000.000000000000000,45.793500000000002,-63.044600000000003
,SLUICE POINT,1296,Core,3.174050633,1975000.000000000000000,43.772799999999997,-65.950299999999999
,SMITHSVILLE,1298,Non-Core,0,0.000000000000000,43.485900000000001,-65.463800000000006
,SONORA,1300,Core,3.432291667,1920000.000000000000000,45.057600000000001,-61.904499999999999
,SOUTH BAR,1301,Core,2.997560976,2050000.000000000000000,46.200400000000002,-60.203899999999997
,SOUTH SIDE,1304,Core,3.481958763,4850000.000000000000000,43.447699999999998,-65.585800000000006
,STONEY ISLAND,1312,Core,2.84032634,4290000.000000000000000,43.468000000000004,-65.566299999999998
,SURETTES ISLAND (THE TITTLE),1314,Core,3.561320755,1060000.000000000000000,43.719999999999999,-65.905400000000000
,SWIMS POINT,1315,Core,2.972222222,2025000.000000000000000,43.433000000000000,-65.631299999999996
,TERENCE BAY,1318,Core,2.865187713,1465000.000000000000000,44.467799999999997,-63.714700000000001
,THREE FATHOM HARBOUR,1320,Core,3.507621951,820000.000000000000000,44.639099999999999,-63.276800000000001
,TIVERTON -FISHERMEN'S WHARF,1323,Core,2.975517241,7250000.000000000000000,44.396999999999998,-66.213700000000003
,TONEY RIVER,1325,Core,3.960869565,5175000.000000000000000,45.771599999999999,-62.890599999999999
,UPPER PORT LA TOUR,1331,Core,2.851528384,5725000.000000000000000,43.505899999999997,-65.469499999999996
,VOGLERS COVE WEST,1335,Core,2.930167598,4475000.000000000000000,44.153300000000002,-64.545000000000002
,WALLACE,1337,Core,2.532363801,2654200.000000000000000,45.814799999999998,-63.473100000000002
,WEDGE POINT (WEDGEPORT),1338,Core,3.120748299,7350000.000000000000000,43.713099999999997,-65.969300000000004
,WEST ARICHAT,1339,Non-Core,0,0.000000000000000,45.511719999999997,-61.077800000000003
,WEST BERLIN,1341,Core,3.488372093,2150000.000000000000000,44.068899999999999,-64.582599999999999
,WEST DOVER,1342,Core,3.130434783,1150000.000000000000000,44.492899999999999,-63.868400000000001
,WEST GREEN HARBOUR,1343,Core,3.275362319,1725000.000000000000000,43.719200000000001,-65.167800000000000
,WEST HEAD,1345,Core,3.603286853,12550000.000000000000000,43.458799999999997,-65.651899999999998
,WESTPORT -FERRY WHARF,1350,Core,3.16,5750000.000000000000000,44.265700000000002,-66.348200000000006
,WESTPORT (IRISHTOWN),1351,Core,2.568888889,4500000.000000000000000,44.258400000000002,-66.346699999999998
,WHALE COVE,1352,Non-Core,2.495098039,2550000.000000000000000,44.435899999999997,-66.175100000000000
,WHITE POINT,1353,Core,3.4360074,2973000.000000000000000,46.875399999999999,-60.353400000000001
,UPPER WHITEHEAD,1356,Core,1.954308094,1915000.000000000000000,45.240900000000003,-61.189500000000002
,YARMOUTH BAR,1361,Core,4.638888889,5400000.000000000000000,43.815100000000001,-66.150499999999994
,CARIBOU FERRY - FISHERMEN'S FACILITIES,1364,Core,3.258881579,7600000.000000000000000,45.738999999999997,-62.687500000000000
,CENTRAL PORT MOUTON - FISHERMEN'S WHARF,1403,Core,3.810523289,8695000.000000000000000,43.920299999999997,-64.842799999999997
,FREEPORT (NORTHEAST COVE),1404,Non-Core,0,0.000000000000000,44.269399999999997,-66.328999999999994
,FREEPORT (SOUTH COVE),1405,Core,3.720457433,3935000.000000000000000,44.266100000000002,-66.327299999999994
,PETIT-DE-GRAT,1408,Core,3.609299098,5764000.000000000000000,45.505800000000001,-60.960400000000000
,CHETICAMP (LA DIGUE),1411,Core,3.313482007,9865000.000000000000000,46.636200000000002,-61.010100000000001
,LUNENBURG - FISHERMEN'S WHARF,1412,Core,3.487951807,1660000.000000000000000,44.376300000000001,-64.314499999999995
,ALBERTON (NORTHPORT),2001,Core,3.374459246,14563000.000000000000000,46.795299999999997,-64.059100000000001
,ANNANDALE,2003,Core,3.114645461,4527000.000000000000000,46.258299999999998,-62.423800000000000
,BAY FORTUNE,2006,Core,3.703842522,10165200.000000000000000,46.328600000000002,-62.350200000000001
,BEACH POINT,2007,Core,3.706624606,14265000.000000000000000,46.016100000000002,-62.486600000000003
,BIDEFORD,2010,Non-Core,0,0.000000000000000,46.613500000000002,-63.908700000000003
,BORDEN - FISHERMEN'S WHARF,2011,Core,2.322527832,3054000.000000000000000,46.250000000000000,-63.701300000000003
,CLIFTON,2017,Non-Core,0,0.000000000000000,46.461799999999997,-63.542200000000001
,COVEHEAD,2018,Core,3.855182927,3280000.000000000000000,46.428199999999997,-63.146200000000000
,DARNLEY (BRIDGE),2020,Non-Core,1.685153584,1465000.000000000000000,46.534399999999998,-63.664600000000000
,ABRAMS VILLAGE,2021,Core,3.288161856,5647000.000000000000000,46.440100000000001,-64.111800000000002
,FISHING COVE,2024,Core,2.685576077,5685000.000000000000000,46.408000000000001,-64.134500000000003
,FRENCH RIVER,2025,Core,3.232962963,2025000.000000000000000,46.517400000000002,-63.511499999999998
,FRENCH RIVER -SOUTH LANDING,2026,Core,2.950501002,2495000.000000000000000,46.508899999999997,-63.501300000000001
,GEORGETOWN - FISHERMEN'S WHARF,2027,Core,2.993985925,4177700.000000000000000,46.179000000000002,-62.530700000000003
,GRAHAM POND,2029,Core,3.317936611,12188200.000000000000000,46.096200000000003,-62.454500000000003
,HIGGINS SHORE (PRINCE COUNTY),2033,Core,3.006164059,2109000.000000000000000,46.549599999999998,-64.088499999999996
,HOWARDS COVE,2034,Core,3.499910794,5605000.000000000000000,46.740200000000002,-64.378200000000007
,JUDES POINT,2035,Core,3.480682731,6225000.000000000000000,46.952199999999998,-64.002799999999993
,LAUNCHING POND,2037,Core,3.541445665,10388300.000000000000000,46.220900000000000,-62.411700000000003
,LOWER MONTAGUE,2040,Core,3.27747371,1626100.000000000000000,46.170200000000001,-62.562700000000000
,MACHONS POINT,2041,Core,2.776237624,2525000.000000000000000,46.013900000000000,-62.513800000000003
,MALPEQUE COVE (MALPEQUE),2042,Core,3.421535394,5015000.000000000000000,46.556399999999996,-63.703099999999999
,MCAULEY'S SHORE (PINETTE RIVER),2043,Core,3.423735511,2277600.000000000000000,46.057899999999997,-62.927300000000002
,MILLIGANS SHORE,2046,Core,2.804754416,4133000.000000000000000,46.655500000000004,-63.911499999999997
,MIMINEGASH,2047,Core,3.858178675,14171000.000000000000000,46.879300000000001,-64.232100000000003
,MINK RIVER,2048,Core,3.433121019,3925000.000000000000000,46.048699999999997,-62.529400000000003
,MONTAGUE,2049,Core,2.93776533,3392000.000000000000000,46.164999999999999,-62.646000000000001
,MURRAY RIVER,2050,Non-Core,2.214285714,1400000.000000000000000,46.013399999999997,-62.609299999999998
,NAUFRAGE,2051,Core,2.903273338,14828900.000000000000000,46.467300000000002,-62.417700000000004
,NEW LONDON,2052,Core,3.411214953,1605000.000000000000000,46.469200000000001,-63.513800000000003
,NINE MILE CREEK,2053,Core,3.81284153,3660000.000000000000000,46.148200000000003,-63.218299999999999
,NORTH LAKE,2055,Core,3.17040638,16420600.000000000000000,46.467199999999998,-62.069499999999998
,NORTH RUSTICO,2056,Core,3.222492335,11415000.000000000000000,46.456910000000001,-63.310299999999998
,PINETTE,2058,Non-Core,2.81122449,980000.000000000000000,46.053899999999999,-62.910600000000002
,PORT HILL,2061,Non-Core,0,0.000000000000000,46.593100000000000,-63.866599999999998
,RED HEAD,2063,Core,3.2032155,9202300.000000000000000,46.432200000000002,-62.712899999999998
,SAVAGE HARBOUR,2069,Core,2.986721152,6179000.000000000000000,46.432200000000002,-62.835999999999999
,SEACOW POND,2070,Core,2.843835119,5507000.000000000000000,47.029299999999999,-63.990099999999998
,SKINNERS POND,2071,Core,3.570432923,13559000.000000000000000,46.964599999999997,-64.124200000000002
,SOUTH RIVER (MURRAY HARBOUR),2072,Core,2.584302326,4300000.000000000000000,46.005600000000001,-62.522300000000001
,STANHOPE,2074,Non-Core,2.543478261,460000.000000000000000,46.414200000000001,-63.117400000000004
,STANLEY BRIDGE,2075,Core,3.295155039,3870000.000000000000000,46.463200000000001,-63.459299999999999
,STURGEON,2076,Non-Core,3.140625,800000.000000000000000,46.123399999999997,-62.532299999999999
,STURGEON (BRIDGE),2077,Core,4.639393939,825000.000000000000000,46.118400000000001,-62.540199999999999
,TIGNISH,2078,Core,3.386573129,17141000.000000000000000,46.951400000000000,-63.995699999999999
,TRACADIE,2079,Core,2.763109654,4500500.000000000000000,46.403199999999998,-63.029299999999999
,VICTORIA,2081,Core,3.43647199,4195000.000000000000000,46.213200000000001,-63.489600000000003
,WEST POINT,2082,Core,2.920161604,10272000.000000000000000,46.618899999999996,-64.372100000000003
,WOOD ISLANDS,2083,Core,3.168205654,4386000.000000000000000,45.953000000000003,-62.747799999999998
,ALMA,2501,Core,3.121915056,5227000.000000000000000,45.600200000000001,-64.945800000000006
,ANSE-BLEUE,2502,Core,3.367288004,8986000.000000000000000,47.830599999999997,-65.081299999999999
,BACK BAY,2503,Core,4.026420079,7570000.000000000000000,45.055900000000001,-66.863900000000001
,BARRE-DE-COCAGNE (CORMIERVILLE),2505,Core,3.058249303,4661000.000000000000000,46.407899999999998,-64.616399999999999
,BAY DU VIN,2507,Core,3.198056801,2007000.000000000000000,47.039000000000001,-65.147000000000006
,BEAVER HARBOUR,2508,Core,4.379334649,7094000.000000000000000,45.068899999999999,-66.739699999999999
,LEPREAU (BELAS BASIN),2510,Core,1.750305499,2455000.000000000000000,45.125000000000000,-66.471400000000003
,BLACK RIVER,2513,Core,3.592760181,1989000.000000000000000,45.260899999999999,-65.809600000000003
,BLACKS HARBOUR,2514,Core,4.479928407,3911000.000000000000000,45.055599999999998,-66.794799999999995
,BOTSFORD (MURRAY CORNER),2515,Core,3.216840212,5282000.000000000000000,46.168799999999997,-63.934800000000003
,BOYNES COVE,2516,Core,4.342933204,4132000.000000000000000,45.131100000000004,-66.498199999999997
,BURNT CHURCH,2520,Non-Core,2.289655172,3625000.000000000000000,47.191499999999998,-65.135900000000007
,CAP-DES-CAISSIE,2523,Core,3.238297494,5627000.000000000000000,46.313400000000001,-64.510700000000000
,CAP-PEL?,2525,Core,2.894531861,5751500.000000000000000,46.235500000000002,-64.262200000000007
,CAPE TORMENTINE,2527,Core,2.459150807,13189000.000000000000000,46.134399999999999,-63.777799999999999
,CARAQUET,2528,Core,1.510345495,43908000.000000000000000,47.796599999999998,-64.929599999999994
,CHANCE HARBOUR,2530,Core,2.780737705,3904000.000000000000000,45.122300000000003,-66.351200000000006
,CHOCKPISH (C?TE-SAINTE-ANNE),2531,Core,2.960346609,15438150.000000000000000,46.583599999999997,-64.721599999999995
,CHOCOLATE COVE,2532,Non-Core,0,0.000000000000000,44.946800000000003,-66.973399999999998
,CURRY COVE,2539,Non-Core,0,0.000000000000000,44.928100000000001,-66.938999999999993
,DIPPER HARBOUR,2542,Core,4.113683844,5744000.000000000000000,45.094299999999997,-66.417699999999996
,LES ABOITEAUX (DUPUIS CORNER),2545,Core,3.791032514,5446900.000000000000000,46.230400000000003,-64.297100000000000
,ESCUMINAC,2548,Core,3.142109531,21583000.000000000000000,47.081400000000002,-64.886600000000001
,FAIRHAVEN,2550,Core,3.902231668,1882000.000000000000000,44.963999999999999,-67.008099999999999
,FIVE FATHOM HOLE,2551,Core,3.365872211,986000.000000000000000,45.186599999999999,-66.257400000000004
,GRANDE-ANSE,2557,Core,3.399600331,3628000.000000000000000,47.818600000000004,-65.177400000000006
,POINTE-VERTE,2558,Core,2.402149321,6011200.000000000000000,47.861100000000000,-65.762200000000007
,GULL COVE (WHITEHEAD ISLAND),2559,Core,3.847328244,655000.000000000000000,44.630499999999998,-66.691699999999997
,HARDWICKE (FRENCH RIVER),2561,Non-Core,3.483291771,2005000.000000000000000,47.078400000000002,-65.018299999999996
,HEAD HARBOUR,2563,Core,3.779292929,3960000.000000000000000,44.944099999999999,-66.920800000000000
,INGALLS HEAD,2565,Core,3.080545369,21270000.000000000000000,44.661999999999999,-66.756299999999996
,JACQUET RIVER,2567,Non-Core,3.950980392,510000.000000000000000,47.922600000000003,-66.029200000000003
,LOGGIECROFT (KOUCHIBOUGUAC),2568,Core,3.626036124,3908800.000000000000000,46.831699999999998,-64.934299999999993
,LAM?QUE,2571,Core,1.280932785,21870000.000000000000000,47.791400000000003,-64.658199999999994
,LEONARDVILLE,2573,Core,3.912033015,9208000.000000000000000,44.971800000000002,-66.953199999999995
,PETIT-CAP,2576,Core,3.044696219,6659400.000000000000000,46.199399999999997,-64.163200000000003
,LITTLE DIPPER HARBOUR,2577,Non-Core,0,0.000000000000000,45.115499999999997,-66.361099999999993
,PETIT SHIPPAGAN,2580,Core,3.485510766,6177000.000000000000000,47.882599999999996,-64.575599999999994
,LORDS COVE,2582,Core,3.308646003,3065000.000000000000000,45.005899999999997,-66.947400000000002
,LORNEVILLE,2583,Core,4.13372093,2580000.000000000000000,45.192599999999999,-66.148300000000006
,BAS-CARAQUET,2584,Non-Core,2.208522212,5515000.000000000000000,47.808500000000002,-64.857100000000003
,BAS-NEGUAC (LOWER NEGUAC),2585,Core,2.488153777,4474000.000000000000000,47.257199999999997,-65.054000000000002
,CAP-DE-SAINT-LOUIS,2587,Core,3.617147629,4310800.000000000000000,46.759700000000002,-64.914000000000001
,MACES BAY,2588,Non-Core,1,150000.000000000000000,45.116700000000002,-66.478499999999997
,MALLOCH BEACH (NORTH ROAD),2591,Core,3.764372163,3305000.000000000000000,44.915799999999997,-66.941900000000004
,MCEACHERNS POINT (WISHART POINT),2595,Core,3.150512518,4741300.000000000000000,47.339900000000000,-64.968699999999998
,MILLER BROOK (SALMON BEACH),2597,Core,2.747940391,3556500.000000000000000,47.668900000000001,-65.504800000000003
,MISCOU,2598,Core,3.006442621,9507000.000000000000000,47.895299999999999,-64.578199999999995
,NEGUAC,2600,Core,3.32637736,10360400.000000000000000,47.241000000000000,-65.073999999999998
,NEW MILLS,2601,Core,3.028225806,2666000.000000000000000,47.974400000000003,-66.188500000000005
,NORTH HEAD -FISHERMEN'S WHARF,2603,Core,3.170148248,17808000.000000000000000,44.762799999999999,-66.750200000000007
,PETIT-ROCHER,2606,Core,3.19941195,4761500.000000000000000,47.782600000000002,-65.708100000000002
,PIGEON HILL,2608,Core,3.519451585,11670000.000000000000000,47.878200000000000,-64.506000000000000
,POINTE-SAPIN,2609,Core,2.985795201,14547900.000000000000000,46.961599999999997,-64.831400000000002
,RICHARDSON,2616,Non-Core,0,0.000000000000000,44.995199999999997,-66.946399999999997
,RICHIBUCTO,2617,Core,2.844523133,11790500.000000000000000,46.680900000000001,-64.861400000000003
,CAP-LUMI?RE (RICHIBUCTO CAPE),2619,Core,1.80753667,12291900.000000000000000,46.674100000000003,-64.712000000000003
,ROBICHAUD,2621,Non-Core,2.447761887,5384000.000000000000000,46.224299999999999,-64.383700000000005
,SAINT-EDOUARD-DE-KENT,2623,Core,3.169869707,4605000.000000000000000,46.541300000000000,-64.698499999999996
,SAVOY LANDING,2625,Core,2.036118704,2561000.000000000000000,47.749499999999998,-64.691000000000003
,SEAL COVE-FISHERMEN'S WHARVES,2626,Core,4.13612837,19475000.000000000000000,44.648400000000002,-66.839900000000000
,SEELEYS COVE,2627,Core,3.902912621,1648000.000000000000000,45.093800000000002,-66.636300000000006
,SHIPPAGAN,2630,Core,3.018391071,47485000.000000000000000,47.746699999999997,-64.702100000000002
,LE GOULET,2631,Core,1.748317954,47085500.000000000000000,47.719600000000000,-64.669300000000007
,ST. MARTINS,2635,Core,3.831139737,7142000.000000000000000,45.357399999999998,-65.532700000000006
,ST. THOMAS,2639,Core,2.495699541,3488000.000000000000000,46.447099999999999,-64.635900000000007
,SAINTE-MARIE-SUR-MER,2640,Core,2.903120936,7690000.000000000000000,47.780600000000000,-64.564800000000005
,STONEHAVEN,2641,Core,3.350710322,5821300.000000000000000,47.754899999999999,-65.362700000000004
,STUART TOWN,2642,Core,3.715174129,4020000.000000000000000,45.018999999999998,-66.938000000000002
,VAL-COMEAU,2649,Core,3.036384739,8400500.000000000000000,47.465000000000003,-64.883799999999994
,WHALE COVE,2658,Core,4,515000.000000000000000,44.773299999999999,-66.760999999999996
,WHITE HEAD,2659,Core,3.563214526,8922000.000000000000000,44.628599999999999,-66.724900000000005
,WILSONS BEACH,2663,Core,2.376506024,2988000.000000000000000,44.932299999999998,-66.940600000000003
,WOODWARDS COVE,2664,Core,1.251019323,5641000.000000000000000,44.702100000000002,-66.739500000000007
,THE WHISTLE (WHISTLE BEACH),2701,#N/A,#N/A,0.000000000000000,44.798299999999998,-66.787499999999994
,AGUANISH OUEST,3502,Non-Core,3.054545455,1100000.000000000000000,50.225999999999999,-62.106900000000003
,AYLMER SOUND (PORT HARRINGTON),3514,Non-Core,2.75,131000.000000000000000,50.604500000000002,-59.454099999999997
,BAIE DE BRADOR,3517,Core,3.953229399,3592000.000000000000000,51.482689999999998,-57.242699999999999
,BAIE DES MOUTONS,3518,Core,2.991411043,2445000.000000000000000,50.773009999999999,-59.030400000000000
,BLANC SABLON-GRAND QUAI DES PECHEURS,3531,Core,2.269852424,7115000.000000000000000,51.422499999999999,-57.146500000000003
,BONAVENTURE (RIVIERE),3533,Core,1.515354814,10053850.000000000000000,48.033999999999999,-65.480999999999995
,CARLETON-SECTION DES PECHEURS,3544,Core,2.398327399,5392800.000000000000000,48.100569999999998,-66.127200000000002
,CHEVERY (RIVIERE CROSS)-QUAI,3553,Core,3.25,1710000.000000000000000,50.480800000000002,-59.600400000000000
,CLORIDORME,3558,Core,3.491477291,21733700.000000000000000,49.186100000000003,-64.848900000000000
,ETANG-DU-NORD (L'ETANG-DU-NORD),3574,Core,2.677005985,38866200.000000000000000,47.369950000000003,-61.958700000000000
,GASCONS (RUISSEAU CHAPADOS),3583,Core,3.111318915,15998000.000000000000000,48.189900000000002,-64.860600000000005
,GRANDE ENTREE,3589,Core,3.275334716,26515000.000000000000000,47.557000000000002,-61.558199999999999
,GRANDE-RIVIERE - HAVRE,3590,Core,4,41759050.000000000000000,48.392899999999997,-64.492900000000006
,GROSSE-ILE (CAP DU DAUPHIN),3598,Core,3.70042201,18269700.000000000000000,47.627699999999997,-61.514299999999999
,HAVRE-AUBERT - INSTALLATION DE P?CHE C?TI?RE,3600,Core,3.058475298,11331602.000000000000000,47.233800000000002,-61.829300000000003
,HAVRE-ST-PIERRE,3602,Core,5,615000.000000000000000,50.237000000000002,-63.604399999999998
,ILE BRION (BRION'S ISLAND),3608,Non-Core,0.992604644,2028300.000000000000000,47.782899999999998,-61.469799999999999
,ILE D'ENTREE (L'ILE-D'ENTREE),3609,Core,3.5542348,18103275.000000000000000,47.277999999999999,-61.719999999999999
,L'ISLE-VERTE (VILLAGE),3613,Non-Core,0,0.000000000000000,48.024500000000003,-69.347700000000003
,KEGASKA - CALE DE HALAGE EST,3615,Core,3.720447907,1027000.000000000000000,50.184600000000003,-61.264000000000003
,L'ANSE-?-BEAUFILS,3618,Core,3.810405691,20594500.000000000000000,48.472299999999997,-64.309500000000000
,L'ANSE-?-BRILLANT,3619,Core,2.701495513,7522500.000000000000000,48.720599999999997,-64.291499999999999
,L'ANSE-?-VALLEAU,3621,Core,3.706075748,11117150.000000000000000,49.081409999999998,-64.544799999999995
,L'ANSE-AU-GRIFFON,3622,Non-Core,3.330414903,16753300.000000000000000,48.936309999999999,-64.306799999999996
,LA TABATIERE-SECTION DES PECHE,3631,Core,4.378656126,6325000.000000000000000,50.837660000000000,-58.972900000000003
,LES MECHINS -QUAI DES PECHEURS,3660,Core,3.013848968,7654000.000000000000000,49.005099999999999,-66.976600000000005
,LES MECHINS (PETITS),3662,Non-Core,1.750830565,842800.000000000000000,49.023699999999998,-66.925799999999995
,MAL-BAY (ST-GEORGES),3676,Core,2.090879279,11892700.000000000000000,48.620699999999999,-64.198800000000006
,MATANE (NOUVEAU HAVRE)-QUAI DES P?CHEURS,3680,Core,4.216002225,10786000.000000000000000,48.843400000000003,-67.580600000000004
,MIDDLE BAY,3684,Core,1.896376534,2608000.000000000000000,51.461199999999998,-57.485900000000001
,MILLERAND,3686,Core,3.461141458,29804000.000000000000000,47.216700000000003,-61.983300000000000
,MONT-LOUIS OUEST,3695,Core,3.204396265,21304450.000000000000000,49.234800000000000,-65.736699999999999
,NEWPORT (?LOTS),3699,Non-Core,1.593982438,5955900.000000000000000,48.251570000000001,-64.755499999999998
,NEWPORT (POINTE),3700,Core,2.839710351,28793500.000000000000000,48.286299999999997,-64.720699999999994
,NOTRE-DAME-DE-L'?SLE-VERTE EST,3709,Non-Core,0,0.000000000000000,48.039700000000003,-69.406599999999997
,OLD-HARRY,3720,Non-Core,2.065729971,4754300.000000000000000,47.570900000000002,-61.467100000000002
,PASP?BIAC - QUAI DES P?CHEURS ET D?BARCAD?RE,3725,Core,0.982026856,43565000.000000000000000,48.015999999999998,-65.250000000000000
,PERC?,3727,Non-Core,1.4,9206600.000000000000000,48.521000000000001,-64.211799999999997
,PETITE-VALL?E,3731,Non-Core,3.547292803,3758500.000000000000000,49.221370000000000,-65.036900000000003
,POINTE-AUX-LOUPS,3736,Core,3.856403937,11994340.000000000000000,47.530099999999997,-61.715600000000002
,POINTE-BASSE,3737,Core,3.093172617,17969550.000000000000000,47.389820000000000,-61.789900000000003
,PORT-CARTIER (RIVI?RE DES ROCHERS),3742,Non-Core,3.389830508,1416000.000000000000000,50.018070000000002,-66.873699999999999
,PORT-DANIEL-EST (? BONA),3744,Core,2.329735034,5095000.000000000000000,48.183590000000002,-64.962549999999993
,PORT-DANIEL-OUEST (MARCIL'S LANDING),3745,Non-Core,0,0.000000000000000,48.112299999999998,-65.024600000000007
,RIMOUSKI-EST - HAVRE ? VOCATIONS MULTIPLES,3755,Non-Core,3.841989751,9386100.000000000000000,48.481000000000002,-68.515400000000000
,RIVIERE AU TONNERRE (RIVIERE),3760,Core,5,8787000.000000000000000,50.273730000000000,-64.781689999999998
,RIVI?RE MADELEINE (CAP ? L'OURS),3764,Non-Core,3.578947368,4132500.000000000000000,49.240560000000002,-65.293599999999998
,RIVIERE ST-PAUL (VILLAGE),3767,Core,3.15,1300000.000000000000000,51.470700000000001,-57.707000000000001
,RIVIERE-AU-RENARD,3768,Core,3.284593615,109749370.000000000000000,48.996499999999997,-64.388099999999994
,RUISSEAU-LEBLANC,3773,Non-Core,0.987237522,17120500.000000000000000,48.077800000000003,-65.614300000000000
,SALMON BAY,3774,Core,3,850000.000000000000000,51.419199999999996,-57.614800000000002
,SEPT-ILES - VIEUX QUAI,3781,Non-Core,3.343046358,7550000.000000000000000,50.200000000000003,-66.383300000000006
,SHIGAWAKE,3783,Core,4.77830379,1858850.000000000000000,48.093000000000004,-65.070999999999998
,SILLERY,3784,Non-Core,3,11820000.000000000000000,46.783999999999999,-71.235500000000002
,ST-AUGUSTIN (RIVIERE),3796,Non-Core,2.3,2385000.000000000000000,51.224600000000002,-58.649799999999999
,ST-GODEFROI,3814,Core,4,9977000.000000000000000,48.073900000000002,-65.114199999999997
,STE-F?LICIT? (ANSE ? LA CROIX),3848,Non-Core,0,0.000000000000000,48.907600000000002,-67.292500000000004
,STE-F?LICIT? (VILLAGE),3849,Non-Core,0,0.000000000000000,48.901510000000002,-67.344800000000006
,STE-TH?R?SE-DE-GASP? (PETITE RIVI?RE EST),3856,Core,2.387047108,38320400.000000000000000,48.414800000000000,-64.394300000000001
,TOURELLES (ST-JOACHIM),3862,Core,2.740406355,19527250.000000000000000,49.158239999999999,-66.418070000000000
,TROIS-PISTOLES (VILLE),3864,Non-Core,3.564266251,3853500.000000000000000,48.133099999999999,-69.184299999999993
,CAP-AUX-MEULES (PORT POLYVALENT),3889,Core,3.850680905,28244010.000000000000000,47.377530000000000,-61.855499999999999
,OLD FORT BAY-QUAI DES P?CHEURS,3893,Core,3,2250000.000000000000000,51.422300000000000,-57.814100000000003
,MINGAN,3894,Core,4.963724305,8270000.000000000000000,50.289650000000002,-64.019869999999997
,HARRINGTON HARBOUR-CALE DE HALAGE,3895,Core,4,785000.000000000000000,50.496350000000000,-59.475600000000000
,T?TE-?-LA-BALEINE (FISHERMEN'S WHARF),3896,Core,2.520396601,1765000.000000000000000,50.698650000000001,-59.323810000000002
,BAIE COMEAU (HAVRE POLYVALENT),3911,Core,3.33,375000.000000000000000,49.229100000000003,-68.133499999999998
,BAIE-TRINIT?,3979,Core,2.233082707,6650000.000000000000000,49.420499999999997,-67.284499999999994
,FATIMA (ANSE DE L'H?PITAL),3982,Non-Core,0,0.000000000000000,47.420409999999997,-61.896200000000000
,BLANC SABLON -CALE DE HALAGE,3984,Core,3.796610169,295000.000000000000000,51.422300000000000,-57.148200000000003
,BLANC SABLON-PETIT QUAI DES PECHEURS,3985,Core,2.737592397,1515200.000000000000000,51.422400000000003,-57.146700000000003
,CAP-CHAT - NOUVEAU HAVRE,3987,Core,4.12047069,22382440.000000000000000,49.099100000000000,-66.688100000000006
,GASCONS (ANSE ? LA BARBE),3992,Non-Core,2.261113606,4454000.000000000000000,48.187390000000001,-64.893000000000001
,LES ESCOUMINS (BASQUES),4035,Core,2.384338772,4658000.000000000000000,48.346100000000000,-69.389399999999995
,RIVI?RE ST-PAUL (?LE DES ESQUIMAUX),4048,Non-Core,2.4,5565000.000000000000000,51.418100000000003,-57.706699999999998
,STE-ANNE-DES-MONTS - HAVRE POLYVALENT,4065,Core,2.757410337,59224700.000000000000000,49.132640000000002,-66.488600000000005
,KEGASKA - QUAI D?BARCAD?RE,4068,Core,3,2150000.000000000000000,50.184600000000003,-61.263900000000000
,RIVI?RE ST-PAUL (BAIE CHEVALIER),4077,Core,3.363834423,4590000.000000000000000,51.496000000000002,-57.679600000000001
,SEPT-ILES (PARC BUNGE),4078,Core,2.817959245,26549000.000000000000000,50.202809999999999,-66.386070000000004
,CHEVERY (RIVI?RE CROSS) - RAMPE DE LANCEMENT,4081,Core,3.701492537,402000.000000000000000,50.460079999999998,-59.651499999999999
,MATANE (HAVRE) - FACE SUD DU QUAI ?PERON,4082,#N/A,#N/A,0.000000000000000,48.852620000000002,-67.532219999999995
,BAIE DE BRADOR (ILE UDELL),4137,Non-Core,0,9300000.000000000000000,51.464190000000002,-57.259900000000002